[{"time":"12月6日(日)14:30","title":"新韻之聲合唱作品發表會","location":"東吳大學美育中心松怡廳","address":"臺北市臨溪路70號第二教研大樓二樓","url":"http://www.artsticket.com.tw/CKSCC2005/Product/Product00/ProductsDetailsPage.aspx?ProductID=oK4bYlG1GfyZcQrmPK7wBw"},{"time":"12月6日(日)14:30","title":"知音時間 基礎合唱團","location":"臺北市藝文推廣處","address":"臺北市松山區八德路3段25號","url":""},{"time":"12月10日(四)09:00","title":"人權紀念日音樂會","location":"臺北市中山堂","address":"臺北市中正區延平南路98號","url":"http://www.csh.taipei.gov.tw/"},{"time":"12月11日(五)12:30","title":"午間音樂會：臺新金控元廳12/11","location":"臺新銀行金控大樓","address":"臺北市大安區仁愛路四段118號2F","url":"http://www.taishinart.org.tw/index.php"},{"time":"12月11日(五)19:30","title":"2015蘇打綠巡迴演唱會","location":"臺北小巨蛋","address":"臺北市松山區南京東路四段2號","url":"http://www.taipeiarena.com.tw/"},{"time":"12月12日(六)19:30","title":"NCO超樂系列音樂會──《觀易賞樂Ⅱ》","location":"國家音樂廳","address":"台北市中山南路21-1號","url":"http://www.artsticket.com.tw/CKSCC2005/Product/Product00/ProductsDetailsPage.aspx?ProductID=oK4bYlG1GfxGUFyqQjXmVQ"},{"time":"12月13日(日)14:30","title":"音樂沙龍-樂一飛揚","location":"臺北市藝文推廣處","address":"臺北市松山區八德路3段25號","url":"http://www.tmseh.taipei.gov.tw"},{"time":"12月14日(ㄧ)19:30","title":"心靈饗樂─玫瑰花語","location":"演奏廳","address":"台北市中山南路21-1號","url":"http://www.artsticket.com.tw/CKSCC2005/Product/Product00/ProductsDetailsPage.aspx?ProductID=oK4bYlG1GfwD%2feMGXmaNug"},{"time":"12月19日(六)18:00","title":"【故宮週末夜】【對影三人】II ","location":"國立故宮博物院","address":"臺北市士林區外雙溪至善路2段221號","url":"http://theme.npm.edu.tw/events/98events/saturdaynight_9807/index2_ch.html"},{"time":"12月19日(六)19:30","title":"【TCO】人文系列《樂舞陽春》","location":"臺北市中山堂中正廳","address":"臺北市延平南路98號","url":"http://www.artsticket.com.tw/CKSCC2005/Product/Product00/ProductsDetailsPage.aspx?ProductID=oK4bYlG1Gfz2Nq95dT7Edg"},{"time":"12月20日(日)15:00","title":"妙音樂集國樂團","location":"國立國父紀念館","address":"臺北市信義區仁愛路四段505號","url":""},{"time":"12月5日(六)20:00","title":"《靈魂的告白-Songs of the Soul》黃長頌 × 梁允睿× Live band","location":"雷克雅維克實驗室","address":"台北市濟南路一段7號B1","url":"http://www.artsticket.com.tw/CKSCC2005/Product/Product00/ProductsDetailsPage.aspx?ProductID=oK4bYlG1GfzUMeQr3QXHGw"},{"time":"12月5日(六)19:30","title":"2015 Rubato 年度陶笛音樂會－Dancing Rubato","location":"功學社音樂廳","address":"新北市蘆洲區中山二路162號2樓","url":"http://www.artsticket.com.tw/CKSCC2005/Product/Product00/ProductsDetailsPage.aspx?ProductID=oK4bYlG1GfwTIayA0j0tM"},{"time":"12月6日(日)14:30","title":"柳川優子複音口琴獨奏音樂會","location":"新莊文化藝術中心演藝廳","address":"新北市新莊區中平路133號","url":"http://www.artsticket.com.tw/CKSCC2005/Product/Product00/ProductsDetailsPage.aspx?ProductID=oK4bYlG1GfzQuKQPVVMxJQ"},{"time":"12月6日(日)14:30","title":"【TSO】低音魔法師—林柏格與巴塔斯維克","location":"臺北市中山堂中正廳","address":"臺北市延平南路98號","url":"http://www.artsticket.com.tw/CKSCC2005/Product/Product00/ProductsDetailsPage.aspx?ProductID=oK4bYlG1Gfyqle7ZB21KWQ"},{"time":"12月6日(日)19:30","title":"意與象－馬水龍紀念樂展","location":"國家音樂廳","address":"台北市中山南路21-1號","url":"http://www.artsticket.com.tw/CKSCC2005/Product/Product00/ProductsDetailsPage.aspx?ProductID=oK4bYlG1GfynM%2b6LKRnOcg"},{"time":"12月7日(ㄧ)19:30","title":"2015師大音樂系公演—展覽會之畫","location":"臺北市中山堂中正廳","address":"臺北市延平南路98號","url":"http://www.artsticket.com.tw/CKSCC2005/Product/Product00/ProductsDetailsPage.aspx?ProductID=oK4bYlG1GfyTlIYKhprwn"},{"time":"12月8日(二)19:30","title":"琴園菁英聯合演奏會(五)－《天山狂想》","location":"演奏廳","address":"台北市中山南路21-1號","url":"http://www.artsticket.com.tw/CKSCC2005/Product/Product00/ProductsDetailsPage.aspx?ProductID=oK4bYlG1Gfz2MkwBpvLpfw"},{"time":"12月11日(五)19:30","title":"解說式音樂會‧舞動心靈的能量","location":"東吳大學美育中心松怡廳","address":"臺北市臨溪路70號第二教研大樓二樓","url":"http://www.artsticket.com.tw/CKSCC2005/Product/Product00/ProductsDetailsPage.aspx?ProductID=oK4bYlG1GfyZoFOEbDLaF"},{"time":"12月13日(日)17:00","title":"「樂聲優洋」音樂演奏會12月場","location":"得忌利士洋行","address":"新北市淡水區中正路316、316-1號","url":"http://www.tshs.ntpc.gov.tw/"},{"time":"12月13日(日)18:00","title":"東方神起","location":"臺北小巨蛋","address":"臺北市松山區臺北市南京東路四段2號","url":"http://www.taipeiarena.com.tw/"},{"time":"12月13日(日)19:30","title":"次女高音范婷玉2015獨唱會 ¡Baila, Canta, Española！","location":"演奏廳","address":"台北市中山南路21-1號","url":"http://www.artsticket.com.tw/CKSCC2005/Product/Product00/ProductsDetailsPage.aspx?ProductID=oK4bYlG1GfzwaW4YUGifXg"},{"time":"12月19日(六)19:30","title":"遊樂園的奇幻之旅~臺灣管樂團2015年親子音樂會","location":"臺北市政府","address":"臺北市信義區市府路1號","url":""},{"time":"12月6日(日)14:00","title":"【 弦話室內樂 】系列音樂會 - 豎笛與弦樂四重奏的對話","location":"","address":"臺北市松山區敦化北路155巷76號3樓","url":"http://blind.tpml.edu.tw/ct.asp?xItem=933663&ctNode=260&mp=10"},{"time":"12月7日(ㄧ)19:30","title":"德勒斯登聖十字合唱團","location":"國家音樂廳","address":"台北市中山南路21-1號","url":"http://www.artsticket.com.tw/CKSCC2005/Product/Product00/ProductsDetailsPage.aspx?ProductID=oK4bYlG1Gfz%2fdOKabkA17Q"},{"time":"12月8日(二)19:30","title":"福爾摩沙合唱團2015藝文推廣系列音樂會之五","location":"新北市藝文中心演藝廳","address":"新北市板橋區莊敬路62號","url":"http://www.artsticket.com.tw/CKSCC2005/Product/Product00/ProductsDetailsPage.aspx?ProductID=oK4bYlG1Gfzr2GSI%2bhM0Ww"},{"time":"12月10日(四)19:00","title":"臺北市高中音樂班聯合展演","location":"臺北市政府","address":"臺北市信義區市府路1號","url":""},{"time":"12月10日(四)19:30","title":"電影主題音樂會－現正上映","location":"國家音樂廳","address":"台北市中山南路21-1號","url":"http://www.artsticket.com.tw/CKSCC2005/Product/Product00/ProductsDetailsPage.aspx?ProductID=oK4bYlG1GfxxDSwlVrm9eg"},{"time":"12月11日(五)18:30","title":"三重中央扶輪社慈善音樂會","location":"蘆洲功學社音樂廳","address":"新北市蘆洲區中山二路162號2樓","url":"http://www.khshall.com.tw/front/bin/ptdetail.phtml?Part=1512-2"},{"time":"12月12日(六)15:00","title":"茶與樂的對話～臺北書院四季茶會「冬茶品真」","location":"臺北市中山堂光復廳","address":"臺北市延平南路98號","url":"http://www.artsticket.com.tw/CKSCC2005/Product/Product00/ProductsDetailsPage.aspx?ProductID=hsobWfDDQ3SWTG9V7q8gBg"},{"time":"12月13日(日)14:00","title":"演出—「育育樂室音樂嘉年華音樂會」","location":"文山劇場","address":"臺北市文山區景文街32號","url":"http://www.tmseh.taipei.gov.tw"},{"time":"12月13日(日)14:30","title":"巴赫納利亞台灣室內樂團《2015巴赫納利亞．台灣冬季音樂會》","location":"新莊文化藝術中心","address":"新北市新莊區中平路133號","url":""},{"time":"12月16日(三)19:30","title":"第十一屆丁善理先生紀念音樂會-郎朗鋼琴獨奏會","location":"台北國家音樂廳","address":"臺北市中山南路21-1號  信義路側","url":"http://www.ticket.com.tw/dm.asp?P1=0000016675"},{"time":"12月17日(四)19:30","title":"二刀迴響","location":"蘆洲功學社音樂廳","address":"新北市蘆洲區中山二路162號2樓","url":"http://www.khshall.com.tw/front/bin/ptdetail.phtml?Part=1512-2"},{"time":"12月17日(四)19:40","title":"知心名家名曲—浪漫華彩","location":"演奏廳","address":"台北市中山南路21-1號","url":"http://www.artsticket.com.tw/CKSCC2005/Product/Product00/ProductsDetailsPage.aspx?ProductID=oK4bYlG1Gfx84dD383pT2g"},{"time":"12月19日(六)20:30","title":"書店藝文- 音樂《KNOCK樂團》","location":"","address":"新北市板橋區板橋區（新北市）=","url":"http://www.ccbook.tw"},{"time":"12月20日(日)14:30","title":"音樂沙龍-金色聖誕綺想曲","location":"臺北市藝文推廣處","address":"臺北市松山區八德路3段25號","url":"http://www.tmseh.taipei.gov.tw"},{"time":"12月5日(六)19:30","title":"新北市新莊文化藝術中心附屬團隊─新莊管樂團年度成果音樂會","location":"新莊文化藝術中心","address":"新北市新莊區中平路133號","url":""},{"time":"12月6日(日)14:30","title":"弦上飛音Ⅱ 沈非 劉晶與台北柳琴室內樂團音樂會","location":"國家演奏廳","address":"台北市中山南路21-1號","url":"http://www.artsticket.com.tw/CKSCC2005/Product/Product00/ProductsDetailsPage.aspx?ProductID=oK4bYlG1Gfwfph8wihBxuQ"},{"time":"12月6日(日)14:30","title":"高烽泰&學生們的長號獨奏會(方寶華先生與方林品仙女士追思音樂會2)","location":"功學社音樂廳","address":"新北市蘆洲區中山二路162號2樓","url":"http://www.artsticket.com.tw/CKSCC2005/Product/Product00/ProductsDetailsPage.aspx?ProductID=oK4bYlG1GfyWzCUZHZN%2fmw"},{"time":"12月6日(日)19:30","title":"『前奏曲之夜』- 鄭夙娟2015鋼琴獨奏會","location":"演奏廳","address":"台北市中山南路21-1號","url":"http://www.artsticket.com.tw/CKSCC2005/Product/Product00/ProductsDetailsPage.aspx?ProductID=oK4bYlG1GfyQtShMCEaPQg"},{"time":"12月11日(五)19:30","title":"【TSO】林柏格的交響明信片","location":"臺北市中山堂中正廳","address":"臺北市延平南路98號","url":"http://www.artsticket.com.tw/CKSCC2005/Product/Product00/ProductsDetailsPage.aspx?ProductID=oK4bYlG1GfwOkj0J8nDaaQ"},{"time":"12月16日(三)19:30","title":"向賴碧霞致敬 傳統山歌音樂會","location":"臺北市中山堂","address":"臺北市中正區延平南路98號","url":"http://www.csh.taipei.gov.tw/"},{"time":"12月20日(日)19:30","title":"中央研究院合唱團公演","location":"臺北市中山堂","address":"臺北市中正區延平南路98號","url":"http://www.csh.taipei.gov.tw/"},{"time":"12月5日(六)19:00","title":"104年文化就在巷子裡：經典絲竹與情歌","location":"","address":"臺北市信義區信義區（臺北市）","url":"https://www.facebook.com/arts48"},{"time":"12月6日(日)15:00","title":"左涵瀛歌劇饗宴音樂會","location":"天湛樂 B1音樂廳","address":"臺北市大安區瑞安街 208 巷五號","url":"http://www.artsticket.com.tw/CKSCC2005/Product/Product00/ProductsDetailsPage.aspx?ProductID=oK4bYlG1GfyPGNjD870vAw"},{"time":"12月8日(二)19:30","title":"《帶著歌聲去旅行》台北愛樂青年合唱團音樂會","location":"臺北市中山堂中正廳","address":"臺北市延平南路98號","url":"http://www.artsticket.com.tw/CKSCC2005/Product/Product00/ProductsDetailsPage.aspx?ProductID=oK4bYlG1GfxtntuC8YnC9Q"},{"time":"12月9日(三)19:30","title":"新北市光仁高級中學《翔響 Limitless》","location":"新北市藝文中心","address":"新北市板橋區莊敬路62號","url":""},{"time":"12月13日(日)14:00","title":"2015文山藝術季：鼓慶 城市優人年度成果演出","location":"國立政治大學","address":"臺北市文山區指南路2段64號","url":""},{"time":"12月13日(日)14:30","title":"愛琴。來了－城市大提琴重奏團年度音樂會","location":"臺北市政府","address":"臺北市信義區市府路1號","url":""},{"time":"12月13日(日)19:30","title":"「向」－台北香頌十週年音樂會","location":"新北市藝文中心演藝廳","address":"新北市板橋區莊敬路62號","url":"http://www.artsticket.com.tw/CKSCC2005/Product/Product00/ProductsDetailsPage.aspx?ProductID=oK4bYlG1Gfw8nyBMbxCiug"},{"time":"12月14日(ㄧ)19:30","title":" 陳家琪柳琴獨奏會","location":"蘆洲功學社音樂廳","address":"新北市蘆洲區中山二路162號2樓","url":"http://www.khshall.com.tw/front/bin/ptdetail.phtml?Part=1512-2"},{"time":"12月15日(二)19:00","title":"2015聖誕傳愛音樂會","location":"中油大樓國光會議廳","address":"台北市松仁路3號1樓","url":"http://www.artsticket.com.tw/CKSCC2005/Product/Product00/ProductsDetailsPage.aspx?ProductID=oK4bYlG1GfxPuxqEnvOYOw"},{"time":"12月15日(二)19:30","title":"炫技與經典-辛特戶柏鋼琴獨奏會","location":"國家音樂廳","address":"台北市中山南路21-1號","url":"http://www.artsticket.com.tw/CKSCC2005/Product/Product00/ProductsDetailsPage.aspx?ProductID=oK4bYlG1Gfwi4SfpBNv6p"},{"time":"12月15日(二)19:30","title":"2015 陳沁紅 室內音樂會","location":"演奏廳","address":"台北市中山南路21-1號","url":"http://www.artsticket.com.tw/CKSCC2005/Product/Product00/ProductsDetailsPage.aspx?ProductID=oK4bYlG1GfyofxI4F7dErQ"},{"time":"12月15日(二)19:30","title":"極光婦女合唱團《2015年度公演-雀躍》","location":"新北市藝文中心","address":"新北市板橋區莊敬路62號","url":""},{"time":"12月16日(三)19:20","title":"用心看世界","location":"蘆洲功學社音樂廳","address":"新北市蘆洲區中山二路162號2樓","url":"http://www.khshall.com.tw/front/bin/ptdetail.phtml?Part=1512-2"},{"time":"12月17日(四)19:30","title":"浮士德的奇幻旅程－李純欣小提琴獨奏會","location":"臺北市中山堂光復廳","address":"臺北市延平南路98號","url":"http://www.artsticket.com.tw/CKSCC2005/Product/Product00/ProductsDetailsPage.aspx?ProductID=oK4bYlG1GfzzRLl%2flIqhaQ"},{"time":"12月18日(五)19:30","title":"2015兩廳院聖誕音樂會「給最親愛的」","location":"國家音樂廳","address":"台北市中山南路21-1號","url":"http://www.artsticket.com.tw/CKSCC2005/Product/Product00/ProductsDetailsPage.aspx?ProductID=oK4bYlG1Gfwn%2bW9v8QzFgw"},{"time":"12月19日(六)15:00","title":"JAZZ? --樂管樂團2015年度音樂會","location":"蘆洲功學社音樂廳","address":"新北市蘆洲區中山二路162號2樓","url":"http://www.khshall.com.tw/front/bin/ptdetail.phtml?Part=1512-2"},{"time":"12月19日(六)19:30","title":"東瀛旋風－臺北聯合管樂團定期音樂會","location":"功學社音樂廳","address":"新北市蘆洲區中山二路162號2樓","url":"http://www.artsticket.com.tw/CKSCC2005/Product/Product00/ProductsDetailsPage.aspx?ProductID=oK4bYlG1GfzwWyRMm%2b35LQ"},{"time":"12月19日(六)19:30","title":"「以樂築航」REAP以樂打擊樂團年度音樂會","location":"臺北市中山堂光復廳","address":"臺北市延平南路98號","url":"http://www.artsticket.com.tw/CKSCC2005/Product/Product00/ProductsDetailsPage.aspx?ProductID=oK4bYlG1Gfy3V%2buM%2fwJwJ"},{"time":"12月19日(六)20:00","title":"2015 MC HotDog  小巨蛋演唱會","location":"臺北小巨蛋","address":"臺北市松山區南京東路四段2號","url":"http://www.taipeiarena.com.tw/"},{"time":"12月5日(六)19:30","title":"12月份國家兩廳院主辦節目－音樂廳","location":"國家音樂廳","address":"台北市中山南路21-1號","url":"http://www.artsticket.com.tw/CKSCC2005/Product/Product00/ProductsDetailsPage.aspx?ProductID=oK4bYlG1GfyBWByHQQG8b"},{"time":"12月5日(六)19:30","title":"NSO《以利亞》","location":"國家音樂廳","address":"台北市中山南路21-1號","url":"http://www.artsticket.com.tw/CKSCC2005/Product/Product00/ProductsDetailsPage.aspx?ProductID=oK4bYlG1GfwvNNPauLoa2g"},{"time":"12月8日(二)19:30","title":"【TCO】全民瘋跨界系列《情人哏裡出西施─國樂LIVE版》","location":"國家音樂廳","address":"台北市中山南路21-1號","url":"http://www.artsticket.com.tw/CKSCC2005/Product/Product00/ProductsDetailsPage.aspx?ProductID=oK4bYlG1GfxiuWROPEd2nQ"},{"time":"12月9日(三)19:30","title":"號角聲響XIV－何忠謀小號獨奏會","location":"演奏廳","address":"台北市中山南路21-1號","url":"http://www.artsticket.com.tw/CKSCC2005/Product/Product00/ProductsDetailsPage.aspx?ProductID=oK4bYlG1Gfwp0TXmK%2f3iy"},{"time":"12月12日(六)19:30","title":"NSO室內樂集《樂想‧樂響 2015》","location":"國家演奏廳","address":"台北市中山南路21-1號","url":"http://www.artsticket.com.tw/CKSCC2005/Product/Product00/ProductsDetailsPage.aspx?ProductID=oK4bYlG1GfwQ38rkXR%2fPEw"},{"time":"12月12日(六)19:30","title":"2015瑜林逸響古箏演奏會─箏愛FUN頌","location":"台北民生社區中心集會堂","address":"台北市民生東路5段163之一號四樓","url":"http://www.artsticket.com.tw/CKSCC2005/Product/Product00/ProductsDetailsPage.aspx?ProductID=oK4bYlG1Gfxa%2b8%2fgd7JtIQ"},{"time":"12月13日(日)09:00","title":"小小音樂家音樂教室 成果發表會","location":"蘆洲功學社音樂廳","address":"新北市蘆洲區中山二路162號2樓","url":"http://www.khshall.com.tw/front/bin/ptdetail.phtml?Part=1512-2"},{"time":"12月13日(日)14:30","title":"2015 國樂新秀與仙后座箏樂團系列音樂會","location":"臺北市中山堂光復廳","address":"臺北市延平南路98號","url":"http://www.artsticket.com.tw/CKSCC2005/Product/Product00/ProductsDetailsPage.aspx?ProductID=hsobWfDDQ3TD2NqRErYXhw"},{"time":"12月13日(日)14:30","title":"愛樂．巴赫系列Ⅲ－巴赫《聖誕神劇》","location":"國家音樂廳","address":"台北市中山南路21-1號","url":"http://www.artsticket.com.tw/CKSCC2005/Product/Product00/ProductsDetailsPage.aspx?ProductID=oK4bYlG1Gfz3uOHKPTfVG"},{"time":"12月14日(ㄧ)19:30","title":"LoveTaipei 一起找回台北之愛公益音樂會","location":"臺北市中山堂","address":"臺北市中正區延平南路98號","url":"http://www.csh.taipei.gov.tw/"},{"time":"12月14日(ㄧ)19:30","title":"樫本大進2015小提琴獨奏會","location":"國家音樂廳","address":"台北市中山南路21-1號","url":"http://www.artsticket.com.tw/CKSCC2005/Product/Product00/ProductsDetailsPage.aspx?ProductID=oK4bYlG1Gfxlp%2f%2f8viJ79g"},{"time":"12月17日(四)19:30","title":"山歌浪想 當代山歌音樂會","location":"臺北市中山堂","address":"臺北市中正區延平南路98號","url":"http://www.csh.taipei.gov.tw/"},{"time":"12月18日(五)11:00","title":"女巫祭","location":"文山農場","address":"新北市新店區湖子內路100號","url":"http://festival.witchhouse.org/"},{"time":"12月18日(五)19:30","title":"【TSO】馬勒之歌","location":"臺北市中山堂中正廳","address":"臺北市延平南路98號","url":"http://www.artsticket.com.tw/CKSCC2005/Product/Product00/ProductsDetailsPage.aspx?ProductID=oK4bYlG1GfyAgHJfB3dULw"},{"time":"12月19日(六)14:00","title":"NSO媽媽說故事《史特勞斯們》","location":"國家演奏廳","address":"台北市中山南路21-1號","url":"http://www.artsticket.com.tw/CKSCC2005/Product/Product00/ProductsDetailsPage.aspx?ProductID=oK4bYlG1Gfz8JHuSkcTF%2fw"},{"time":"12月20日(日)14:30","title":"滿滿愛爵士聖誕樂 瑞信慈善音樂會","location":"臺北市中山堂","address":"臺北市中正區延平南路98號","url":"http://www.csh.taipei.gov.tw/"},{"time":"12月5日(六)19:30","title":"劇樂部劇團《愛在日落為你死》","location":"文山劇場","address":"文山劇場","url":"http://www.artsticket.com.tw/CKSCC2005/Product/Product00/ProductsDetailsPage.aspx?ProductID=oK4bYlG1GfxQ%2bUC36t64oQ"},{"time":"12月5日(六)19:30","title":"創作社‧愛不冬眠《我為你押韻-情歌》","location":"水源劇場","address":"台北市羅斯福路四段92號10樓","url":"http://www.artsticket.com.tw/CKSCC2005/Product/Product00/ProductsDetailsPage.aspx?ProductID=oK4bYlG1Gfyr%2fStaylqdK"},{"time":"12月11日(五)19:30","title":"臺灣大學戲劇學系第十四屆畢業製作《無人生還》","location":"國立臺灣大學臺大劇場","address":"國立臺灣大學","url":"http://www.artsticket.com.tw/CKSCC2005/Product/Product00/ProductsDetailsPage.aspx?ProductID=oK4bYlG1GfxvE62FTdvnH"},{"time":"12月15日(二)19:00","title":"中國國家京劇院","location":"國家戲劇院","address":"台北市中山南路21-1號","url":"http://www.artsticket.com.tw/CKSCC2005/Product/Product00/ProductsDetailsPage.aspx?ProductID=oK4bYlG1GfzUquEjgDMexQ"},{"time":"12月17日(四)19:30","title":"國立臺北藝術大學戲劇學院冬季公演《玩命諾拉》","location":"國立臺北藝術大學展演藝術中心戲劇廳","address":"台北市學園路1號","url":"http://www.artsticket.com.tw/CKSCC2005/Product/Product00/ProductsDetailsPage.aspx?ProductID=oK4bYlG1Gfw%2fHXdpev2x4Q"},{"time":"12月6日(日)14:30","title":"104年臺北市歌仔戲製作及發表專案-薪傳歌仔戲劇團《雙槐樹》","location":"大稻埕戲苑","address":"臺北市迪化街一段21號9樓","url":"http://www.artsticket.com.tw/CKSCC2005/Product/Product00/ProductsDetailsPage.aspx?ProductID=oK4bYlG1Gfycu8j3bQquyQ"},{"time":"12月5日(六)19:30","title":"國士無雙 ","location":"臺北市藝文推廣處","address":"臺北市松山區八德路3段25號","url":"http://www.tmseh.taipei.gov.tw"},{"time":"12月5日(六)20:00","title":"勇氣即興《Theatresports™》","location":"勇氣即興主舞台","address":"台北市承德路二段139巷3號","url":"http://www.artsticket.com.tw/CKSCC2005/Product/Product00/ProductsDetailsPage.aspx?ProductID=oK4bYlG1GfyD8t%2fkxZUZfQ"},{"time":"12月9日(三)14:30","title":"【映‧show】影片欣賞\t明華園黃字戲劇團《太后出嫁》","location":"大稻埕戲苑","address":"臺北市大同區迪化街1段21號9樓","url":"http://www.tmseh.taipei.gov.tw"},{"time":"12月12日(六)19:30","title":"《雪跡》: 一位演員的藝術自傳","location":"淡水雲門小劇場","address":"新北市淡水區中正路一段6巷36號","url":"http://www.artsticket.com.tw/CKSCC2005/Product/Product00/ProductsDetailsPage.aspx?ProductID=oK4bYlG1GfwJRJzeQelYuw"},{"time":"12月20日(日)10:00","title":"【映‧show】影片欣賞\t臺灣豫劇團《三打陶三春》","location":"大稻埕戲苑","address":"臺北市大同區迪化街1段21號9樓","url":"http://www.tmseh.taipei.gov.tw"},{"time":"12月17日(四)19:30","title":"同黨劇團《平常心》","location":"國家戲劇院實驗劇場","address":"台北市中山南路21-1號","url":"http://www.artsticket.com.tw/CKSCC2005/Product/Product00/ProductsDetailsPage.aspx?ProductID=oK4bYlG1GfwDvvY3wXlmeg"},{"time":"12月18日(五)19:30","title":"奇蹟起乩《時間偵探》","location":"索引文創","address":"台北市中山區大直街34巷30號","url":"http://www.artsticket.com.tw/CKSCC2005/Product/Product00/ProductsDetailsPage.aspx?ProductID=oK4bYlG1Gfz%2bEjeAkOkTJQ"},{"time":"12月18日(五)19:30","title":"一心戲劇團《芙蓉歌》","location":"臺北市藝文推廣處城市舞台","address":"台北市八德路三段25號","url":"http://www.artsticket.com.tw/CKSCC2005/Product/Product00/ProductsDetailsPage.aspx?ProductID=oK4bYlG1GfxIuFytmpR1Sg"},{"time":"12月18日(五)22:30","title":"即興果醬之夜","location":"勇氣即興主舞台","address":"台北市承德路二段139巷3號","url":"http://www.artsticket.com.tw/CKSCC2005/Product/Product00/ProductsDetailsPage.aspx?ProductID=oK4bYlG1GfzOtnByPlxHgw"},{"time":"12月19日(六)14:00","title":"《幾許情深》蓬瀛曲集","location":"大稻埕戲苑","address":"臺北市大同區迪化街1段21號9樓","url":"http://www.tmseh.taipei.gov.tw"},{"time":"12月5日(六)19:00","title":"身聲劇場【阿勇的黑白人生】","location":"新北市立圖書館淡水分館","address":"新北市淡水區文化路65號","url":""},{"time":"12月6日(日)14:00","title":"2015崑劇表演藝術工作坊成果發表","location":"大稻埕戲苑","address":"臺北市大同區迪化街1段21號9樓","url":"http://www.tmseh.taipei.gov.tw"},{"time":"12月6日(日)15:00","title":"藤原啟治X櫻井孝宏Special_talk_show_in_Taiwan","location":"NeoStudio","address":"臺北市松壽路22號5樓","url":"http://www.ticket.com.tw/dm.asp?P1=0000017000"},{"time":"12月10日(四)19:30","title":"The Myth《迷思世界》雙戲聯演（夸父+皮諾丘）","location":"牯嶺街小劇場1樓實驗劇場","address":"台北市牯嶺街5巷2號","url":"http://www.artsticket.com.tw/CKSCC2005/Product/Product00/ProductsDetailsPage.aspx?ProductID=oK4bYlG1GfzoEf%2bGjyV0wQ"},{"time":"12月5日(六)19:30","title":"中國國家話劇院2015年臺北演出季","location":"Legacy 傳音樂展演空間","address":"台北市八德路1段1號 華山1914文創園區中五館","url":"http://www.artsticket.com.tw/CKSCC2005/Product/Product00/ProductsDetailsPage.aspx?ProductID=oK4bYlG1GfxMH38dtzMvrw"},{"time":"12月5日(六)19:30","title":"台北曲藝團 城人故事3~2015幸福聚獻-逗陣","location":"臺北市中山堂中正廳","address":"臺北市延平南路98號","url":"http://www.artsticket.com.tw/CKSCC2005/Product/Product00/ProductsDetailsPage.aspx?ProductID=oK4bYlG1Gfw4DrqANQc6M"},{"time":"12月5日(六)19:30","title":"2015明華園天字戲劇團《國士無雙》","location":"臺北市藝文推廣處城市舞台","address":"台北市八德路三段25號","url":"http://www.artsticket.com.tw/CKSCC2005/Product/Product00/ProductsDetailsPage.aspx?ProductID=oK4bYlG1GfyPmEKJyciU5"},{"time":"12月8日(二)13:30","title":"104年傳統表演藝術教育傳習暨觀摩演出計畫聯合成果展","location":"大稻埕戲苑","address":"臺北市大同區迪化街1段21號9樓","url":"http://www.tmseh.taipei.gov.tw"},{"time":"12月11日(五)19:30","title":"當代傳奇劇場 傳奇風雅-肆-《青年戲曲節》","location":"板橋435藝文特區 枋橋大劇院","address":"新北市板橋區中正路435號","url":"http://www.artsticket.com.tw/CKSCC2005/Product/Product00/ProductsDetailsPage.aspx?ProductID=oK4bYlG1GfxDupz%2fxPIxI"},{"time":"12月11日(五)19:30","title":"12月份國家兩廳院主辦節目－戲劇院","location":"國家戲劇院","address":"台北市中山南路21-1號","url":"http://www.artsticket.com.tw/CKSCC2005/Product/Product00/ProductsDetailsPage.aspx?ProductID=oK4bYlG1GfwAkYvAU0%2bTbQ"},{"time":"12月13日(日)14:30","title":"《揚州風雲》","location":"大稻埕戲苑","address":"臺北市大同區迪化街1段21號9樓","url":"http://www.tmseh.taipei.gov.tw"},{"time":"12月18日(五)19:00","title":"明霞歌仔戲《才子佳人》","location":"大稻埕戲苑","address":"臺北市迪化街一段21號9樓","url":"http://www.artsticket.com.tw/CKSCC2005/Product/Product00/ProductsDetailsPage.aspx?ProductID=oK4bYlG1Gfw5ESm2kuO%2bP"},{"time":"12月18日(五)19:30","title":"足跡 X 窮劇場─大世界娛樂場II","location":"牯嶺街小劇場1樓實驗劇場","address":"台北市牯嶺街5巷2號","url":"http://www.artsticket.com.tw/CKSCC2005/Product/Product00/ProductsDetailsPage.aspx?ProductID=oK4bYlG1GfyGEUSRM%2bV20"},{"time":"12月18日(五)20:00","title":"歡樂聖誕YEAH！讓你開心一整夜！《E7新喜劇：記不德劇團》","location":"E7PLAY三重館","address":"新北市三重區中央南路63號B1","url":"http://www.artsticket.com.tw/CKSCC2005/Product/Product00/ProductsDetailsPage.aspx?ProductID=hsobWfDDQ3QOyKgoAsLKFQ"},{"time":"12月10日(四)19:30","title":"桃花*亂紅","location":"臺北市藝文推廣處","address":"臺北市松山區八德路3段25號","url":"http://www.tmseh.taipei.gov.tw"},{"time":"12月10日(四)19:30","title":"【桃花│亂紅】傳奇文本的經典與當代《亂紅》","location":"臺北市藝文推廣處城市舞台","address":"台北市八德路三段25號","url":"http://www.artsticket.com.tw/CKSCC2005/Product/Product00/ProductsDetailsPage.aspx?ProductID=oK4bYlG1GfwSdx7QkYvRw"},{"time":"12月12日(六)15:00","title":"大即興實驗室","location":"勇氣即興主舞台","address":"台北市承德路二段139巷3號","url":"http://www.artsticket.com.tw/CKSCC2005/Product/Product00/ProductsDetailsPage.aspx?ProductID=oK4bYlG1GfztohVk0d6MLQ"},{"time":"12月12日(六)19:00","title":"104年文化就在巷子裡：望子崖","location":"","address":"臺北市大同區哈密街61號","url":"https://www.facebook.com/arts48"},{"time":"12月13日(日)14:30","title":"臺北市立社會教育館附設青年歌仔戲團《揚州風雲》","location":"大稻埕戲苑","address":"臺北市迪化街一段21號9樓","url":"http://www.artsticket.com.tw/CKSCC2005/Product/Product00/ProductsDetailsPage.aspx?ProductID=oK4bYlG1GfxM8FtYVwN1E"},{"time":"12月10日(四)19:30","title":"2015 驫舞劇場《 兩對》","location":"國家戲劇院實驗劇場","address":"台北市中山南路21-1號","url":"http://www.artsticket.com.tw/CKSCC2005/Product/Product00/ProductsDetailsPage.aspx?ProductID=oK4bYlG1GfwplXC83h24IQ"},{"time":"12月11日(五)19:30","title":"新古典舞團－兒童舞劇《小王子 3.0》","location":"國家戲劇院","address":"台北市中山南路21-1號","url":"http://www.artsticket.com.tw/CKSCC2005/Product/Product00/ProductsDetailsPage.aspx?ProductID=oK4bYlG1GfyPi5o6E5eBtQ"},{"time":"12月5日(六)19:30","title":"Allure＿《YOLO》","location":"台北西門紅樓二樓劇場","address":"台北市萬華區成都路10號","url":"http://www.artsticket.com.tw/CKSCC2005/Product/Product00/ProductsDetailsPage.aspx?ProductID=oK4bYlG1GfxlsJkyO3eg2"},{"time":"12月11日(五)19:45","title":"2015舞蹈學院歲末展演-薪傳","location":"國立臺北藝術大學展演藝術中心舞蹈廳","address":"台北市學園路1號","url":"http://www.artsticket.com.tw/CKSCC2005/Product/Product00/ProductsDetailsPage.aspx?ProductID=oK4bYlG1GfwoWBEtyo945w"},{"time":"12月16日(三)20:00","title":"小事製作創團作品《生活是甜蜜》","location":"華山1914文創園區中2館 果酒禮堂2樓","address":"台北市八德路一段1號","url":"http://www.artsticket.com.tw/CKSCC2005/Product/Product00/ProductsDetailsPage.aspx?ProductID=oK4bYlG1Gfz4hYBabGt9Tg"},{"time":"12月5日(六)19:30","title":"馨雁舞集‧邱淑鈴《歡迎光臨‧幸福起笑》","location":"新北市藝文中心演藝廳","address":"新北市板橋區莊敬路62號","url":"http://www.artsticket.com.tw/CKSCC2005/Product/Product00/ProductsDetailsPage.aspx?ProductID=oK4bYlG1GfznOqXPhJaChQ"},{"time":"12月18日(五)19:30","title":"2015 松菸Lab新主藝－劉冠詳《野外》","location":"松山文創園區LAB創意實驗室","address":"台北市光復南路133號東向製菸工廠2樓","url":"http://www.artsticket.com.tw/CKSCC2005/Product/Product00/ProductsDetailsPage.aspx?ProductID=oK4bYlG1Gfxwd1SuyatTeQ"},{"time":"12月20日(日)19:30","title":"曼妙精靈Yana大師暨台灣名師晚會show","location":"活水文創園區","address":"新北市中和區中安街85號B1","url":"http://www.ticket.com.tw/dm.asp?P1=0000016936"},{"time":"12月5日(六)19:30","title":"2015 大觀舞集年度舞展《四季》","location":"臺藝表演廳","address":"新北市板橋區大觀路一段59號.","url":"http://www.artsticket.com.tw/CKSCC2005/Product/Product00/ProductsDetailsPage.aspx?ProductID=oK4bYlG1Gfw%2f%2bcA933UYH"},{"time":"12月6日(日)18:00","title":"2015 Randa 中東舞晚會","location":"國立中正紀念堂管理處","address":"臺北市中正區中山南路21號","url":"http://www.cksmh.gov.tw/"},{"time":"12月12日(六)14:30","title":"印度輝煌夜—西瓦印度舞團2015全新製作","location":"文山劇場","address":"臺北市景文街32號","url":"http://www.artsticket.com.tw/CKSCC2005/Product/Product00/ProductsDetailsPage.aspx?ProductID=oK4bYlG1GfzXroQ%2fo96jP"},{"time":"12月12日(六)19:30","title":"新北市2015傑出演藝團隊年度公演－水影舞集《薄冰上之舞》","location":"新北市藝文中心演藝廳","address":"新北市板橋區莊敬路62號","url":"http://www.artsticket.com.tw/CKSCC2005/Product/Product00/ProductsDetailsPage.aspx?ProductID=oK4bYlG1GfyZlZKNYldEj"},{"time":"12月19日(六)10:30","title":"台北愛樂室內樂坊《2015兒童樂園》系列音樂會 -《音樂聖誕派對》","location":"台北愛樂暨梅哲音樂文化館","address":"台北市濟南路一段7號B1","url":"http://www.artsticket.com.tw/CKSCC2005/Product/Product00/ProductsDetailsPage.aspx?ProductID=oK4bYlG1GfywDnl5beYPT"},{"time":"12月12日(六)18:00","title":"飛人集社劇團《生命幻想曲》系列：初生","location":"淡水雲門劇場","address":"新北市淡水區中正路1段6巷36號","url":"http://www.artsticket.com.tw/CKSCC2005/Product/Product00/ProductsDetailsPage.aspx?ProductID=oK4bYlG1Gfz0wI2Jf49Ly"},{"time":"12月19日(六)19:30","title":"遊樂園的奇幻之旅～臺灣管樂團2015年親子音樂會","location":"臺北市政大樓親子劇場","address":"台北市市府路1號2樓","url":"http://www.artsticket.com.tw/CKSCC2005/Product/Product00/ProductsDetailsPage.aspx?ProductID=oK4bYlG1Gfz5pTVkuWoFU"},{"time":"12月13日(日)11:00","title":"米卡多故事劇場-聖誕老人不見了","location":"米卡多小劇場","address":"台北市八德路四段765號3樓","url":"http://www.ticket.com.tw/dm.asp?P1=0000016887"},{"time":"12月5日(六)19:30","title":"2015 小星星兒童劇團大型兒童歌舞劇《奇幻撲克王國》","location":"臺北市政大樓親子劇場","address":"台北市市府路1號2樓","url":"http://www.artsticket.com.tw/CKSCC2005/Product/Product00/ProductsDetailsPage.aspx?ProductID=oK4bYlG1Gfwr9mGNCV0%2b8w"},{"time":"12月6日(日)14:00","title":"文山劇場展覽延伸活動「光影躲貓貓」","location":"文山劇場","address":"臺北市景文街32號","url":"http://www.artsticket.com.tw/CKSCC2005/Product/Product00/ProductsDetailsPage.aspx?ProductID=oK4bYlG1Gfwrvead%2btD9aQ"},{"time":"12月6日(日)21:00","title":"90狂熱 / 宋德鶴","location":"河岸留言-音樂藝文咖啡","address":"臺北市羅斯福路三段244巷2號","url":"http://www.riverside.com.tw/buy-tickets.htm"},{"time":"12月12日(六)20:00","title":"吐個煙把你圈起來：煙圈、十九兩","location":"小地方展演空間","address":"臺北市中正區杭州南路1段147號","url":"http://www.indievox.com/apamini/event-post/17570"},{"time":"12月16日(三)18:30","title":"New Generation 新世紀演唱會","location":"永豐 Legacy Taipei 音樂展演空間","address":"臺北市中正區八德路一段1號","url":"http://www.indievox.com/tgmfmusic/event-post/17620"},{"time":"12月17日(四)20:00","title":"2015江惠儀 『緩緩愛』新專輯發表演唱會","location":"河岸留言-西門紅樓展演館","address":"臺北市西寧南路177號","url":"http://tickets.books.com.tw/search/concert_search.php?tag=%AAe%A9%A4%AFd%A8%A5%A6%E8%AA%F9%A9%B1"},{"time":"12月12日(六)19:30","title":"2015 團團轉 世界巡迴 台北站","location":"永豐 Legacy Taipei 音樂展演空間","address":"臺北市中正區八德路一段1號","url":"http://www.indievox.com/legacy/event-post/17426"},{"time":"12月11日(五)20:00","title":"12.11 (五) 他者 + YC3","location":"海邊的卡夫卡","address":"臺北市羅斯福路三段244巷2號2樓","url":"http://www.indievox.com/kafka/event-post/17593"},{"time":"12月11日(五)20:00","title":"猴子飛行員 Flying Groove","location":"永豐 Legacy Taipei 音樂展演空間","address":"臺北市中正區八德路一段1號","url":"http://www.indievox.com/legacy/event-post/17540"},{"time":"12月11日(五)20:00","title":"【Legacy mini @ amba】天方爵士<看不見的城市>","location":"Legacy mini @amba","address":"臺北市萬華區武昌街二段77號5樓","url":"http://www.indievox.com/legacymini/event-post/17596"},{"time":"12月12日(六)19:00","title":"[Alexandros] TOUR 2015  \"ご馳走にありつかせて頂きます\"","location":"THE WALL 公館","address":"臺北市文山區羅斯福路四段200號B1","url":"http://www.indievox.com/twindie/event-post/17172"},{"time":"12月16日(三)20:00","title":"RED芮德【完全變態】人生第一場演唱會","location":"河岸留言-西門紅樓展演館","address":"臺北市西寧南路177號","url":"http://tickets.books.com.tw/search/concert_search.php?tag=%AAe%A9%A4%AFd%A8%A5%A6%E8%AA%F9%A9%B1"},{"time":"12月18日(五)18:30","title":"【逆轉未來】 -【Dr.YE】【未來事 NewStory】【逆思樂團】","location":"PIPE Live Music","address":"臺北市思源街一號","url":"http://www.indievox.com/pipemusic/event-post/17465"},{"time":"12月18日(五)20:00","title":"先知瑪莉【繁星夜】最終場：冥王星","location":"ATT SHOW BOX 立方文創","address":"臺北市信義區松壽路12號7樓","url":"http://www.indievox.com/republic/event-post/17428"},{"time":"12月19日(六)19:30","title":"純粹雙面人 安歆澐平安演唱會","location":"河岸留言-西門紅樓展演館","address":"臺北市西寧南路177號","url":"http://tickets.books.com.tw/search/concert_search.php?tag=%AAe%A9%A4%AFd%A8%A5%A6%E8%AA%F9%A9%B1"},{"time":"12月19日(六)20:00","title":"12.19 (六) 幽遊白書魔界音樂會","location":"海邊的卡夫卡","address":"臺北市羅斯福路三段244巷2號2樓","url":"http://www.indievox.com/kafka/event-post/17482"},{"time":"12月5日(六)20:00","title":"12.5 (六) 十周年未來場：尤騰輝、克里夫、洪詮翔","location":"海邊的卡夫卡","address":"臺北市羅斯福路三段244巷2號2樓","url":"http://www.indievox.com/kafka/event-post/17534"},{"time":"12月11日(五)20:00","title":"林宜融　非妮不可 Annie Winterland","location":"河岸留言-西門紅樓展演館","address":"臺北市西寧南路177號","url":"http://tickets.books.com.tw/search/concert_search.php?tag=%AAe%A9%A4%AFd%A8%A5%A6%E8%AA%F9%A9%B1"},{"time":"12月18日(五)20:00","title":"12.18 (五) [鬆口氣] 羅莎莎","location":"海邊的卡夫卡","address":"臺北市羅斯福路三段244巷2號2樓","url":"http://www.indievox.com/kafka/event-post/17572"},{"time":"12月19日(六)18:00","title":"我的90世代：茄子蛋、体慾股長、遊樂、九零金曲K歌之夜","location":"小地方展演空間","address":"臺北市中正區杭州南路1段147號","url":"http://www.indievox.com/apamini/event-post/17571"},{"time":"12月20日(日)19:30","title":"「走味的青春」全台巡迴 - 第一彈台北場：四幸丸康樂團、厭世少年","location":"小地方展演空間","address":"臺北市中正區杭州南路1段147號","url":"http://www.indievox.com/apamini/event-post/17598"},{"time":"12月5日(六)20:00","title":"林吟蔚【我們的小小世界演唱會】","location":"河岸留言-西門紅樓展演館","address":"臺北市西寧南路177號","url":"http://tickets.books.com.tw/search/concert_search.php?tag=%AAe%A9%A4%AFd%A8%A5%A6%E8%AA%F9%A9%B1"},{"time":"12月6日(日)20:00","title":"陶靖＆蕭羽心","location":"河岸留言-西門紅樓展演館","address":"臺北市西寧南路177號","url":"http://tickets.books.com.tw/search/concert_search.php?tag=%AAe%A9%A4%AFd%A8%A5%A6%E8%AA%F9%A9%B1"},{"time":"12月12日(六)19:30","title":"WA-FUSION台日融【和】演唱會","location":"河岸留言-西門紅樓展演館","address":"臺北市西寧南路177號","url":"http://tickets.books.com.tw/search/concert_search.php?tag=%AAe%A9%A4%AFd%A8%A5%A6%E8%AA%F9%A9%B1"},{"time":"12月13日(日)13:30","title":"脫下你的帽子","location":"河岸留言-西門紅樓展演館","address":"臺北市西寧南路177號","url":"http://www.riverside.com.tw/index.php?option=com_livehouse&show_time=2015-12"},{"time":"12月13日(日)20:00","title":"【Dreams connect】陳飛宏 / 周宇軒 / 林佳音 ","location":"河岸留言-西門紅樓展演館","address":"臺北市西寧南路177號","url":"http://tickets.books.com.tw/search/concert_search.php?tag=%AAe%A9%A4%AFd%A8%A5%A6%E8%AA%F9%A9%B1"},{"time":"12月13日(日)20:00","title":"【Legacy mini @ amba】派樂黛宇宙旅社 銀河系尊爵自由行","location":"Legacy mini @amba","address":"臺北市萬華區武昌街二段77號5樓","url":"http://www.indievox.com/legacymini/event-post/17575"},{"time":"12月13日(日)21:00","title":"李友廷、林愷倫 《友人 冬季音樂會》","location":"河岸留言 音樂藝文咖啡","address":"臺北市中正區羅斯福路三段244巷2號B1（臺電大樓旁）","url":"http://www.indievox.com/riversidemusic/event-post/17558"},{"time":"12月17日(四)20:00","title":"The Next Big Thing 大團誕生（年終回顧場）","location":"永豐 Legacy Taipei 音樂展演空間","address":"臺北市中正區八德路一段1號","url":"http://www.indievox.com/legacy/event-post/17573"},{"time":"12月18日(五)20:00","title":"《巨大的轟鳴》冬季巡迴 Asia Winter Tour - 台北場","location":"小地方展演空間","address":"臺北市中正區杭州南路1段147號","url":"http://www.indievox.com/apamini/event-post/17518"},{"time":"12月19日(六)20:00","title":"【Legacy mini @ amba】金芭樂拉丁樂團-Latin All The Night","location":"Legacy mini @amba","address":"臺北市萬華區武昌街二段77號5樓","url":"http://www.indievox.com/legacymini/event-post/17602"},{"time":"12月20日(日)21:00","title":"T.B.A. / 簡勝定","location":"河岸留言-音樂藝文咖啡","address":"臺北市羅斯福路三段244巷2號","url":" http://www.riverside.com.tw/buytickets.htm"},{"time":"12月9日(三)20:00","title":"「我的日劇時代」","location":"河岸留言-西門紅樓展演館","address":"臺北市西寧南路177號","url":"http://tickets.books.com.tw/search/concert_search.php?tag=%AAe%A9%A4%AFd%A8%A5%A6%E8%AA%F9%A9%B1"},{"time":"12月10日(四)19:30","title":"蜂語無阻—2015蜂膠樂團演唱會","location":"河岸留言-西門紅樓展演館","address":"臺北市西寧南路177號","url":"https://www.facebook.com/events/1633484020202421/"},{"time":"12月11日(五)20:30","title":"最美的一隅","location":"小地方展演空間","address":"臺北市中正區杭州南路1段147號","url":"http://www.indievox.com/apamini/event-post/17541"},{"time":"12月12日(六)19:30","title":"告五人 「on the road 在路上」演唱會 w/潘雲安","location":"PIPE Live Music","address":"臺北市思源街一號","url":"http://www.indievox.com/pipemusic/event-post/17594"},{"time":"12月13日(日)19:30","title":"潘裕文 親密 音樂會-台北場","location":"永豐 Legacy Taipei 音樂展演空間","address":"臺北市中正區八德路一段1號","url":"http://www.indievox.com/legacy/event-post/17396"},{"time":"12月18日(五)19:30","title":"四葉草 Joyce Chu \"草想你der\"同樂Party","location":"河岸留言-西門紅樓展演館","address":"臺北市西寧南路177號","url":"http://dow.kktix.cc/events/joycechu2015"},{"time":"12月19日(六)20:00","title":"宇宙人「真實朋友」往前進TICC演唱會-你沒跟錯人","location":"永豐 Legacy Taipei 音樂展演空間","address":"臺北市中正區八德路一段1號","url":"http://www.indievox.com/legacy/event-post/17473"},{"time":"12月20日(日)19:00","title":"新店溪大亂鬥 Ver.1_槍手彼特,鹹魚的野心,DleihS","location":"PIPE Live Music","address":"臺北市思源街一號","url":"http://www.indievox.com/pipemusic/event-post/17446"},{"time":"12月12日(六)13:00","title":"簡正鎮 金屬微雕個展 [ 十年一刻 A Moment of Decade ] ","location":"","address":"臺北市中山區中山區（臺北市）","url":"https://www.facebook.com/yy.workshop"},{"time":"12月18日(五)09:00","title":"深海巨怪 Sea Monsters：The Exhibition","location":"國立台灣科學教育館","address":"台北市士林區士商路189號","url":"https://kham.com.tw/application/UTK02/UTK0201_.aspx?PRODUCT_ID=M00LWE1X"},{"time":"12月18日(五)09:00","title":"翻轉吧！顛倒屋特展","location":"國立臺灣科學教育館","address":"台北市士林區士商路189號","url":"https://kham.com.tw/application/UTK02/UTK0201_.aspx?PRODUCT_ID=M00M4594"},{"time":"12月18日(五)09:00","title":"蛋黃哥懶得展","location":"國立臺灣科學教育館","address":"臺北市士林區士商路189號","url":"https://www.facebook.com/gudetama.event"},{"time":"12月19日(六)15:00","title":"《剪紙藝術》工作坊","location":"國家戲劇院地面層","address":"二號門廣場側, 台北市中山南路21-1號","url":"http://www.artsticket.com.tw/CKSCC2005/Product/Product00/ProductsDetailsPage.aspx?ProductID=oK4bYlG1GfxL1O3SE%2bPhuQ"},{"time":"12月19日(六)16:30","title":"2015城南藝事 南海學園站  一日城南：樂透聖誕","location":"","address":"臺北市中正區中正區（臺北市）","url":"http://www.gacc.org.tw/southart/list-1.html"},{"time":"12月18日(五)09:30","title":"塑土／塑造地球－貝馬丁陶藝個展","location":"新北市立鶯歌陶瓷博物館","address":"新北市鶯歌區文化路200號","url":"http://www.ceramics.ntpc.gov.tw/zh-tw/Exhibition/Special.ycm"},{"time":"12月9日(三)09:00","title":"造型‧機能‧生活陶","location":"435藝文特區","address":"新北市板橋區中正路435號","url":"http://www.435.culture.ntpc.gov.tw/"},{"time":"12月12日(六)08:30","title":"A Recorded Trip -淡水國中第廿十二屆美術班畢業展","location":"新北市立圖書館淡水分館","address":"新北市淡水區文化路65號","url":""},{"time":"12月16日(三)11:00","title":"書膽畫魂 翰墨生香 ─乙未陳明貴小壽書畫展","location":"孟焦畫廊","address":"臺北市士林區雨農路17-2號1樓","url":"http://mjart.myweb.hinet.net/"},{"time":"12月19日(六)09:00","title":"憶旅/記憶/足跡/履跡/印痕/ 吳俊學創作個展","location":"臺北市藝文推廣處","address":"臺北市松山區八德路3段25號","url":"http://www.tmseh.taipei.gov.tw"},{"time":"12月19日(六)10:00","title":"[友達以上,戀人未滿]","location":"","address":"新北市板橋區文化路二段242號5樓","url":"https://www.facebook.com/ntuafinearts106"},{"time":"12月6日(日)08:30","title":"【新北市立圖書館蘆洲集賢分館藝文中心】「國立台灣藝術大學書畫系四人聯展-視己觀之」展覽(請惠予宣傳)","location":"新北市立圖書館蘆洲集賢分館藝文中心","address":"新北市蘆洲區仁義里集賢路245號","url":""},{"time":"12月8日(二)08:30","title":"「看天保九如、遊名人故居」—104年冬季故宮樂齡學習活動","location":"國立故宮博物院","address":"臺北市士林區外雙溪至善路2段221號","url":"http://www.npm.gov.tw"},{"time":"12月9日(三)09:30","title":"淡水木色─暖暖手作˙美好生活","location":"淡水海關碼頭園區","address":"新北市淡水區中正路259 號","url":"http://www.tshs.ntpc.gov.tw/"},{"time":"12月12日(六)14:00","title":"西門紅樓107歲生日慶《看見紅樓》","location":"","address":"西門紅樓北廣場（臺北市萬華區成都路10號）\n","url":""},{"time":"12月19日(六)09:30","title":"視現 金工敲花班成果展","location":"","address":"臺北市中正區南海路41號","url":""},{"time":"12月6日(日)13:00","title":"【潮騷－鄭路個展】&【替 身－盧征遠個展】專家導覽：謝東寧","location":"","address":"臺北市大同區長安西路39號","url":"http://www.mocataipei.org.tw/index.php/2012-01-12-03-46-26/2012-01-12-03-46-53/guided-tours/1747-201"},{"time":"12月9日(三)09:30","title":"時光‧淡水─老淡水今昔攝影展","location":"淡水海關碼頭園區","address":"新北市淡水區中正路259 號","url":"http://www.tshs.ntpc.gov.tw/"},{"time":"12月18日(五)09:00","title":"「風韻南瀛．府城夢迴」風野藝術聯展","location":"新莊文化藝術中心","address":"新北市新莊區中平路133號","url":""},{"time":"12月18日(五)09:30","title":"猴彩陶-2016全國生肖陶藝競賽獎","location":"三鶯藝術村","address":"新北市鶯歌區館前路300號","url":"http://www.ceramics.ntpc.gov.tw/zh-tw/Exhibition/Special.ycm?ct=1"},{"time":"12月19日(六)09:30","title":"Taiwan Craft in Movement- 2015國際工藝競賽臺灣得獎者暨入選者聯展","location":"","address":"臺北市中正區南海路41號","url":""},{"time":"12月6日(日)10:00","title":"【總館】104年12月巨型繪本故事屋","location":"","address":"新北市板橋區貴興路139號","url":"http://www.tphcc.gov.tw"},{"time":"12月9日(三)19:30","title":"55期誠品講堂【城市建築家】來自「地域」的呼喚II－自己的文化，自己的建築《單堂課程》","location":"【誠品講堂】誠品敦南店B2 F視聽室","address":"台北市敦化南路一段245號","url":"http://www.artsticket.com.tw/CKSCC2005/Product/Product00/ProductsDetailsPage.aspx?ProductID=oK4bYlG1GfyaC%2fC0SaFyjw"},{"time":"12月12日(六)11:00","title":"你好土 我好菜：動手採食做料理","location":"","address":"臺北市中正區襄陽路25號","url":"http://www.ntm.gov.tw"},{"time":"12月18日(五)19:00","title":"書店藝文- 講座 《漂流身體裡的摩登城市》","location":"","address":"新北市板橋區板橋區（新北市）=","url":"http://www.ccbook.tw"},{"time":"12月11日(五)19:30","title":"55期誠品講堂【藝術實驗室】電影，另類的處方箋－面對不安時代，讓電影給救贖《單堂課程》","location":"誠品電影院","address":"台北市信義區菸廠路80號B2","url":"http://www.artsticket.com.tw/CKSCC2005/Product/Product00/ProductsDetailsPage.aspx?ProductID=oK4bYlG1GfxZ3Ey48LJXzw"},{"time":"12月6日(日)09:30","title":"104年國民記憶庫 故事沙龍：消失的記憶","location":"","address":"臺北市中正區濟南路二段27號","url":"http://storytaiwan.tw/salon/"},{"time":"12月6日(日)14:30","title":"余政明創作個展--書法‧彩墨畫  藝文講座","location":"土城藝文館","address":"新北市土城區和平路24號","url":"http://www.tucheng.ntpc.gov.tw"},{"time":"12月7日(ㄧ)10:45","title":"博物館聚落與文化景觀國際論壇講座：淡水古蹟博物館:推動世界遺產推廣教育的挑戰及契機","location":"國立歷史博物館","address":"臺北市中正區南海路49號","url":"http://www.nmh.gov.tw"},{"time":"12月12日(六)14:00","title":"幸福人生講座-壓力大悶鍋：談壓力調適與紓解","location":"","address":"新北市淡水區民生路27號4樓、5樓、6樓","url":""},{"time":"12月13日(日)14:00","title":"清季變法以來中國法制現代化","location":"","address":"臺北市大安區大安區（臺北市）","url":"http://www.fongyuan.org/"},{"time":"12月16日(三)14:30","title":"藝術下午茶","location":"臺北市藝文推廣處","address":"臺北市松山區八德路3段25號","url":"http://www.tmseh.taipei.gov.tw"},{"time":"12月19日(六)10:00","title":"【新北市立圖書館新莊中港分館】幸福人生講座─12/19再愛自己一次-談分手失落與自我成長的藝術／解景然","location":"新北市立圖書館新莊中港分館","address":"新北市新莊區中港路350號4-8樓","url":""},{"time":"12月19日(六)13:30","title":"[2015禾福田講座]-游祥禾老師-快樂悲傷存在著","location":"臺灣大學演講廳","address":"臺灣大學","url":"http://www.ticket.com.tw/dm.asp?P1=0000016995"},{"time":"12月19日(六)14:00","title":"臺北城內的博物學家：「臺北測候所」和「臺北帝國大學氣象學」間的恩怨情仇","location":"","address":"臺北市中正區襄陽路二號","url":"http://www.ntm.gov.tw"},{"time":"12月19日(六)14:30","title":"「胡思人文講座」之《回首我們的時代》系列講座：汗路、人間路與我的寫作路","location":"","address":"臺北市中正區中正區（臺北市）","url":""},{"time":"12月6日(日)00:00","title":"兒童律動 芭蕾課程","location":"蔡瑞月舞蹈研究社","address":"臺北市中山區中山北路二段48巷10號","url":""},{"time":"12月6日(日)14:30","title":"2015文山藝術季：文創點子~封藏夢想祈福茶","location":"永安藝文館─表演36房","address":"臺北市文山區木新路二段156之1號","url":""},{"time":"12月6日(日)15:00","title":"「淡水古蹟遇見幸福」幸福講堂：幸福的秘密","location":"淡水海關碼頭園區","address":"新北市淡水區中正路259 號","url":""},{"time":"12月12日(六)14:30","title":"市民講座-腦袋開花 月亮請坐--我的詩畫宇宙","location":"臺北市藝文推廣處","address":"臺北市松山區八德路3段25號","url":"http://www.tmseh.taipei.gov.tw"},{"time":"12月13日(日)09:00","title":"【新北市立圖書館土城分館】「閱讀閱有趣」-繪本說故事活動/輔大愛閱社","location":"新北市立圖書館土城分館","address":"新北市土城區中正路18號7樓","url":""},{"time":"12月13日(日)14:00","title":"【新北市立圖書館蘆洲集賢分館藝文中心】「預約富足人生~退休理財規劃」講座(請惠予宣傳)","location":"新北市立圖書館蘆洲集賢分館藝文中心/視聽室","address":"新北市蘆洲區集賢路245號","url":""},{"time":"12月15日(二)08:50","title":"書香冬季研討會","location":"新北市新莊區公所行政大樓","address":"新北市新莊區中正路176號","url":""},{"time":"12月17日(四)14:00","title":"【汐止江北分館】104年12月17日講座-健康生活好幫手-環保酵素製作與應用","location":"汐止江北市民活動中心","address":"新北市汐止區汐萬路一段81號1樓","url":""},{"time":"12月17日(四)19:30","title":"Suming舒米恩 x 蹲點‧台灣  和土地談戀愛 分享會","location":"","address":"臺北市中正區臺北市中正區市民大道三段2號","url":"http://www.accupass.com/go/sumingtalks"},{"time":"12月19日(六)10:30","title":"【新北市立圖書館土城清水圖書閱覽室】12月彩虹故事屋-聖誕公公不見了/短耳兔","location":"新北市立圖書館土城清水圖書閱覽室","address":"新北市土城區清水路243-1號2樓","url":""},{"time":"12月6日(日)14:00","title":"台北新食力 米香創世紀：創新數位行銷-創造品牌黏著力","location":"松山文創園區","address":"臺北市信義區光復南路133號","url":"http://www.songshanculturalpark.org/"},{"time":"12月7日(ㄧ)19:30","title":"55期誠品講堂【音樂廳】聽古典樂 學「領導」－從最後一個譜架到指揮台《單堂課程》","location":"【誠品講堂】誠品敦南店B2 F視聽室","address":"台北市敦化南路一段245號","url":"http://www.artsticket.com.tw/CKSCC2005/Product/Product00/ProductsDetailsPage.aspx?ProductID=oK4bYlG1Gfx0u8awMy2tCg"},{"time":"12月9日(三)10:00","title":"【新北市立圖書館土城分館】 法律講座-食品安全/李坊良榮譽歡護人","location":"新北市立圖書館土城分館","address":"新北市土城區中正路18號7樓","url":""},{"time":"12月19日(六)14:00","title":"【新北市立圖書館中和分舘】12月19日悅讀講座「多元文化看世界」","location":"新北市立圖書館中和分館8樓","address":"新北市中和區南山路236號6樓","url":"http://www.tphcc.gov.tw  "},{"time":"12月19日(六)14:00","title":"【替 身－盧征遠個展】  《我們的存在，是一首歌 －有關材料與身體解放的當代藝術美學》  專題講座","location":"","address":"臺北市大同區長安西路39號","url":"http://www.mocataipei.org.tw/index.php/2012-01-12-03-46-26/2012-01-12-03-46-53/lectures/1745-2015-10"},{"time":"12月20日(日)14:00","title":"【新北市青少年圖書館】講座：「發現立體書的奇幻魅力」 ","location":"","address":"新北市新店區安康路2段151號","url":""},{"time":"12月8日(二)14:00","title":"【新北市立圖書館新莊西盛分館】幸福人生講座─12/8婚姻百百種-談夫妻間要如何維繫關係與克服衝突／李訓維","location":"","address":"新北市新莊區西盛街216號","url":""},{"time":"12月12日(六)09:00","title":"【TAF空總創新基地】第一屆準星論壇暨解決方案工作坊","location":"","address":"臺北市大安區仁愛路三段55號","url":"http://goo.gl/fsNGcV"},{"time":"12月12日(六)09:30","title":"新北市立圖書館三峽分館～幸福家年華+新魯冰花-孩子的天空電影導讀  ","location":"新北市立圖書館三峽分館","address":"新北市三峽區永安街9巷號2樓","url":""},{"time":"12月15日(二)14:00","title":"12月週二樂齡日幸福人生講座-忘不掉的過去：談失智症的面對與自我照顧","location":"新北市立圖書館淡水分館","address":"新北市淡水區文化路65號","url":""},{"time":"12月16日(三)08:20","title":"【新北市立圖書館新莊裕民分館】緣來大不同-認識多元文化之美─12/16多元文化講座／張鈺琦","location":"","address":"新北市新莊區新莊區（新北市）=","url":""},{"time":"12月19日(六)10:30","title":"談「聶隱娘」影片中的自然、人性與權力 (高榮禧)","location":"臺北市紫藤廬","address":"臺北市大安區新生南路3段16巷1號","url":"http://www.wistariateahouse.com/"},{"time":"12月19日(六)14:00","title":"臺灣文學開講「尋訪文學‧邂逅作家」鄭清文小說中的女性角色","location":"臺北市中正區濟南路二段27號","address":"臺北市中正區濟南路二段27號","url":"http://kishuan.pixnet.net/blog"},{"time":"12月19日(六)14:00","title":"【冬夏藝文講座】台灣歌謠的前世今生","location":"林建生紀念圖書館","address":"新北市蘆洲區三民路178號","url":"https://www.facebook.com/events/148308152183104/"},{"time":"12月20日(日)15:00","title":"展覽漫遊 關鍵密語 → 呼叫愛麗絲請回答","location":"臺北市立美術館","address":"臺北市中山區中山北路3段181號","url":"http://www.tfam.museum"},{"time":"12月6日(日)14:00","title":"【潮騷－鄭路個展】《當代藝術中的哲學思維》專題講座","location":"","address":"臺北市大同區長安西路39號","url":"http://www.mocataipei.org.tw/index.php/2012-01-12-03-46-26/2012-01-12-03-46-53/lectures/1742-2015-10"},{"time":"12月8日(二)19:30","title":"55期誠品講堂【現代經典堂】「瘂弦詩集」和「楊牧詩選」－兩位台灣現代詩人經典細讀《單堂課程》","location":"【誠品講堂】誠品信義店6F視聽室","address":"台北市松高路11號","url":"http://www.artsticket.com.tw/CKSCC2005/Product/Product00/ProductsDetailsPage.aspx?ProductID=oK4bYlG1GfxKRWhdpEPvvQ"},{"time":"12月12日(六)10:00","title":"與藝術家有約特別課程-歐洲藝術家講座","location":"新北市立鶯歌陶瓷博物館","address":"新北市鶯歌區文化路200號","url":"http://academy.ceramics.ntpc.gov.tw/zh-tw/Events/C/1/1/1/9726.htm"},{"time":"12月12日(六)10:00","title":"【大師思想系列 免費講座】電影〈布拉格的春天〉之愛情美學意識：本真自我的追尋 ","location":"","address":"臺北市中正區中正區（臺北市）","url":"http://etherbear.pixnet.net/blog"},{"time":"12月12日(六)14:00","title":"【新北市立圖書館永和民權分館 】『與作家有約閱讀』講座:12/12(六)「心的風景」，生命的線條—畫自己的畫，品人生的味/蔡孟玲","location":"新北市立圖書館永和民權分館","address":"新北市永和區民權路60號7、8樓","url":""},{"time":"12月18日(五)19:00","title":"文學沙龍","location":"","address":"臺北市中正區重慶南路二段6巷10號","url":""},{"time":"12月19日(六)15:00","title":"微醺享味 No.3 耶誕節特別場 —Loving Wine，Loving Life!","location":"誠品行旅The Chapter","address":"臺北市信義區菸廠路98號1F","url":"http://www.artsticket.com.tw/CKSCC2005/Product/Product00/ProductsDetailsPage.aspx?ProductID=hsobWfDDQ3QKuGxPhxP1SQ"},{"time":"12月19日(六)19:20","title":"PechaKucha Night Vol.27設計師交流之夜「城市生活的探索」","location":"","address":"臺北市內湖區堤頂大道2段207號","url":"http://www.pechakucha.tw"},{"time":"12月6日(日)14:00","title":"12月電影爆米花 ","location":"新北市立圖書館淡水分館","address":"新北市淡水區文化路65號","url":""},{"time":"12月12日(六)14:00","title":"勞工週末電影院 ( 紀錄片播放 )：12/12肉身搏天","location":"新北市三重勞工中心","address":"新北市三重區中山路8號7樓","url":""},{"time":"12月18日(五)19:00","title":"2015世界公視大展精選 （台北場）","location":"中油大樓國光會議廳","address":"台北市信義區松仁路三號","url":"http://2015bestinput.pts.org.tw/"},{"time":"12月19日(六)16:00","title":"電影《魔鏡夢遊》","location":"臺北市立美術館","address":"臺北市中山區中山北路3段181號","url":"http://www.tfam.museum"},{"time":"12月5日(六)19:00","title":"【12月主題放映-記憶，獻給未來】家鄉保衛戰","location":"府中15新北市動畫故事館暨新北市紀錄片放映院","address":"新北市板橋區府中路15號","url":"http://web.fuzhong15.ntpc.gov.tw/films/index.aspx"},{"time":"12月8日(二)14:00","title":"【新北市立圖書館總館】12/08(二)樂齡電影讀書會－又一年","location":"新北市立圖書館總館","address":"新北市板橋區莒光里莊敬路62號","url":""},{"time":"12月9日(三)18:50","title":"【府中15】紀錄片放映院《風雲人物》","location":"府中15新北市紀錄片放映院","address":"新北市板橋區府中路15號B1","url":"http://www.artsticket.com.tw/CKSCC2005/Product/Product00/ProductsDetailsPage.aspx?ProductID=hsobWfDDQ3Q4msVoUdvb7w"},{"time":"12月10日(四)18:30","title":"社會公義影展《台北抽搐》","location":"國立政治大學","address":"臺北市文山區指南路2段64號","url":""},{"time":"12月11日(五)11:00","title":"影片：異色童話集Tale of Tales","location":"光點臺北(臺北之家)","address":"臺北市中山區中山北路2段18號","url":"http://www.spot.org.tw"},{"time":"12月14日(ㄧ)18:30","title":"社會公義影展《太陽∙不遠》","location":"國立政治大學","address":"臺北市文山區指南路2段64號","url":""},{"time":"12月20日(日)14:00","title":"【12月特別加映場】沒有圍牆的學校(上) The Forbidden Education","location":"府中15新北市動畫故事館暨新北市紀錄片放映院","address":"新北市板橋區府中路15號","url":"http://web.fuzhong15.ntpc.gov.tw/films/index.aspx"},{"time":"12月16日(三)19:30","title":"學學電影院：時尚教主─黛安娜佛里蘭Diana Vreeland： The Eye Has to Travel","location":"學學文創舞台","address":"臺北市內湖區堤頂大道二段207號1樓","url":"http://www.xuexue.tw/institute/inst_course_detail.asp?xmlid=375169"},{"time":"12月18日(五)11:00","title":"影片：意外製造公司The Surprise","location":"光點臺北(臺北之家)","address":"臺北市中山區中山北路2段18號","url":"http://www.spot.org.tw"},{"time":"12月19日(六)14:00","title":"勞工週末電影院 ( 紀錄片播放 )：12/19來去獼猴家做客","location":"新莊勞工中心","address":"新北市新莊區新樹路222號2樓","url":""},{"time":"12月18日(五)11:00","title":"影片：贖罪俱樂部","location":"華山文化創意產業園區","address":"臺北市中正區八德路一段1號","url":"http://www.spot.org.tw"},{"time":"12月18日(五)19:00","title":"2015世界公視大展精選 （台北場）單元一：網路的背叛 12/18 19:00 《按讚的騙局》＋《史諾登大逃亡》 ","location":"臺灣中油股份有限公司大樓","address":"臺北市信義區松仁路3號","url":"http://2015bestinput.pts.org.tw/"},{"time":"12月10日(四)10:00","title":"影片：艾美懷茲","location":"華山文化創意產業園區","address":"臺北市中正區八德路一段1號","url":"http://www.spot.org.tw"},{"time":"12月18日(五)11:00","title":"影片：他們在島嶼寫作II─林文月【讀中文系的人】","location":"華山文化創意產業園區","address":"臺北市中正區八德路一段1號","url":"http://www.spot.org.tw"},{"time":"12月6日(日)14:30","title":"跳躍在城市部落的音符","location":"創意館雨賢廳","address":"臺北市大安區和平東路2段134號","url":""},{"time":"12月13日(日)14:30","title":"臺北廣播電臺：幸福滿滿派對","location":"臺北市中山堂","address":"臺北市中正區延平南路98號","url":"http://www.csh.taipei.gov.tw/"},{"time":"12月19日(六)14:30","title":"陶博館鄰舍節活動","location":"新北市立鶯歌陶瓷博物館","address":"新北市鶯歌區文化路200號","url":"http://www.ceramics.ntpc.gov.tw/zh-tw/Learning/Content.ycm?pr=10236"},{"time":"12月15日(二)19:00","title":"臺北文化獎","location":"臺北市中山堂","address":"臺北市中正區延平南路98號","url":"http://www.csh.taipei.gov.tw/"},{"time":"12月12日(六)14:00","title":"第三屆MAKAPAH美術獎暨第9屆全國原住民兒童繪畫創作比賽頒獎典禮","location":"國立中正紀念堂管理處","address":"臺北市中正區中山南路21號","url":"http://www.cksmh.gov.tw/"},{"time":"12月19日(六)10:00","title":"推廣活動－「聖誕節活動」 ","location":"文山劇場","address":"臺北市文山區景文街32號","url":"http://www.tmseh.taipei.gov.tw"},{"time":"12月19日(六)14:00","title":"北美館32週年館慶活動","location":"臺北市立美術館","address":"臺北市中山區中山北路3段181號","url":"http://www.tfam.museum"},{"time":"12月18日(五)08:00","title":"溫馨許願 小卡傳情","location":"","address":"新北市新店區行政街8號","url":""},{"time":"12月8日(二)14:00","title":"特殊美學聯展開幕典禮","location":"臺北市中山堂","address":"臺北市中正區延平南路98號","url":"http://www.csh.taipei.gov.tw/"},{"time":"12月6日(日)14:00","title":"2015城南藝事 重慶南站 新書分享","location":"","address":"臺北市中正區南海路54號","url":"http://www.gacc.org.tw/southart/list-1.html"},{"time":"12月20日(日)19:00","title":"Ann_Sally記憶紐奧良黃金十年爵士音樂會","location":"ATTSHOWBOX","address":"台北市信義區松壽路12號7樓","url":"http://www.ticket.com.tw/dm.asp?P1=0000017016"},{"time":"12月11日(五)19:30","title":"跨界美聲天后-2015海莉臺北演唱會","location":"台北國家音樂廳","address":"臺北市中山南路21-1號  信義路側","url":"http://www.ticket.com.tw/dm.asp?P1=0000016975"},{"time":"12月11日(五)19:30","title":"夢想城堡-聖誕慈善電影演唱會","location":"臺北小巨蛋星光廳","address":"臺北市南京東路四段2號","url":"http://www.ticket.com.tw/dm.asp?P1=0000017019"},{"time":"12月17日(四)19:30","title":"2015長榮航空貴賓之夜-星光璀璨響樂(蕭煌奇.張信哲.萬芳)","location":"台北國際會議中心大會堂","address":"臺北市信義路五段1號","url":"http://www.ticket.com.tw/dm.asp?P1=0000016984"},{"time":"12月12日(六)10:00","title":"【新北市立圖書館坪林分館】12月推廣坪林茶文化「呷茶話茶伴書香」小小茶藝師奉茶","location":"新北市立圖書館坪林分館","address":"新北市坪林區國中路３號","url":""},{"time":"12月19日(六)09:30","title":"歡樂耶誕十三行","location":"新北市立十三行博物館","address":"新北市八里區博物館路200號","url":"http://www.sshm.ntpc.gov.tw "}]
